Satellite-ImagSat-Sensor-Camera-To-Target-Bethlehem_PA_AER.txt

                                                                                                                                                    14 Aug 2024 20:49:42
Satellite-ImagSat-Sensor-Camera-To-Target-Bethlehem_PA, Target-Denver_CO, Target-Houston_TX, Target-Las_Vegas_NV, Target-Seattle_WA:  Inview Azimuth, Elevation, & Range


Camera-To-Bethlehem_PA - AER reported in the object's default AER frame
-----------------------------------------------------------------------
                         Time (UTCG)          Azimuth (deg)    Elevation (deg)     Range (km)
                  ------------------------    -------------    ---------------    -----------
                  14 Aug 2024 20:17:22.296          284.855            -60.000    4714.453145
                  14 Aug 2024 20:18:22.000          279.896            -60.490    4664.607459
                  14 Aug 2024 20:19:22.000          274.666            -60.842    4630.245036
                  14 Aug 2024 20:20:22.000          269.270            -61.033    4612.074162
                  14 Aug 2024 20:21:22.000          263.806            -61.051    4610.335657
                  14 Aug 2024 20:22:22.000          258.379            -60.896    4625.075738
                  14 Aug 2024 20:23:22.000          253.090            -60.575    4656.144071
                  14 Aug 2024 20:24:22.000          248.025            -60.109    4703.201935
                  14 Aug 2024 20:24:33.964          247.049            -60.000    4714.455528

Interval Statistics
-------------------
Min Elevation     14 Aug 2024 20:20:58.329          265.963            -61.065    4609.051540
Max Elevation     14 Aug 2024 20:24:33.964          247.049            -60.000    4714.455536
Mean Elevation                                                         -60.555               
Min Range         14 Aug 2024 20:20:58.330          265.963            -61.065    4609.051540
Max Range         14 Aug 2024 20:24:33.964          247.049            -60.000    4714.455536
Mean Range                                                                        4658.954748

                         Time (UTCG)          Azimuth (deg)    Elevation (deg)     Range (km)
                  ------------------------    -------------    ---------------    -----------
                  14 Aug 2024 23:07:45.155          357.288            -60.000    4714.441871
                  14 Aug 2024 23:08:45.000          357.270            -61.771    4544.871910
                  14 Aug 2024 23:09:45.000          357.244            -63.755    4384.961729
                  14 Aug 2024 23:10:45.000          357.205            -65.957    4236.508683
                  14 Aug 2024 23:11:45.000          357.149            -68.380    4100.942212
                  14 Aug 2024 23:12:45.000          357.068            -71.024    3979.746884
                  14 Aug 2024 23:13:45.000          356.947            -73.880    3874.419565
                  14 Aug 2024 23:14:45.000          356.756            -76.934    3786.411461
                  14 Aug 2024 23:15:45.000          356.423            -80.159    3717.056746
                  14 Aug 2024 23:16:45.000          355.720            -83.520    3667.493277
                  14 Aug 2024 23:17:45.000          353.369            -86.972    3638.583953
                  14 Aug 2024 23:18:45.000          203.581            -89.465    3630.850213
                  14 Aug 2024 23:19:45.000          181.128            -86.018    3644.428783
                  14 Aug 2024 23:20:45.000          179.573            -82.587    3679.059841
                  14 Aug 2024 23:21:45.000          179.011            -79.261    3734.108895
                  14 Aug 2024 23:22:45.000          178.723            -76.083    3808.618103
                  14 Aug 2024 23:23:45.000          178.547            -73.084    3901.377796
                  14 Aug 2024 23:24:45.000          178.430            -70.287    4011.006444
                  14 Aug 2024 23:25:45.000          178.345            -67.707    4136.028510
                  14 Aug 2024 23:26:45.000          178.280            -65.347    4274.942140
                  14 Aug 2024 23:27:45.000          178.230            -63.209    4426.272775
                  14 Aug 2024 23:28:45.000          178.188            -61.285    4588.611538
                  14 Aug 2024 23:29:29.191          178.162            -60.000    4714.441793

Interval Statistics
-------------------
Min Elevation     14 Aug 2024 23:18:36.757          267.778            -89.767    3630.648751
Max Elevation     14 Aug 2024 23:07:45.155          357.288            -60.000    4714.441871
Mean Elevation                                                         -72.465               
Min Range         14 Aug 2024 23:18:36.757          267.778            -89.767    3630.648751
Max Range         14 Aug 2024 23:07:45.155          357.288            -60.000    4714.441871
Mean Range                                                                        4051.964571

                         Time (UTCG)          Azimuth (deg)    Elevation (deg)     Range (km)
                  ------------------------    -------------    ---------------    -----------
                  15 Aug 2024 02:09:18.660           13.553            -60.000    4714.442339
                  15 Aug 2024 02:10:18.000           14.760            -61.686    4552.395088
                  15 Aug 2024 02:11:18.000           16.246            -63.571    4398.660352
                  15 Aug 2024 02:12:18.000           18.093            -65.638    4256.389699
                  15 Aug 2024 02:13:18.000           20.440            -67.877    4126.950314
                  15 Aug 2024 02:14:18.000           23.507            -70.270    4011.749361
                  15 Aug 2024 02:15:18.000           27.650            -72.779    3912.191672
                  15 Aug 2024 02:16:18.000           33.474            -75.333    3829.624438
                  15 Aug 2024 02:17:18.000           42.011            -77.812    3765.271069
                  15 Aug 2024 02:18:18.000           54.912            -79.989    3720.159712
                  15 Aug 2024 02:19:18.000           73.852            -81.473    3695.054246
                  15 Aug 2024 02:20:18.000           97.318            -81.781    3690.397736
                  15 Aug 2024 02:21:18.000          118.861            -80.777    3706.277507
                  15 Aug 2024 02:22:18.000          134.373            -78.854    3742.418164
                  15 Aug 2024 02:23:18.000          144.650            -76.474    3798.203856
                  15 Aug 2024 02:24:18.000          151.544            -73.932    3872.725616
                  15 Aug 2024 02:25:18.000          156.357            -71.390    3964.845747
                  15 Aug 2024 02:26:18.000          159.860            -68.937    4073.269190
                  15 Aug 2024 02:27:18.000          162.504            -66.622    4196.613034
                  15 Aug 2024 02:28:18.000          164.561            -64.474    4333.467240
                  15 Aug 2024 02:29:18.000          166.202            -62.505    4482.443258
                  15 Aug 2024 02:30:18.000          167.539            -60.718    4642.209365
                  15 Aug 2024 02:30:43.989          168.044            -60.000    4714.442223

Interval Statistics
-------------------
Min Elevation     15 Aug 2024 02:20:01.589           90.781            -81.833    3689.628062
Max Elevation     15 Aug 2024 02:09:18.660           13.553            -60.000    4714.442339
Mean Elevation                                                         -70.561               
Min Range         15 Aug 2024 02:20:01.589           90.780            -81.833    3689.628062
Max Range         15 Aug 2024 02:09:18.660           13.553            -60.000    4714.442339
Mean Range                                                                        4095.660923

                         Time (UTCG)          Azimuth (deg)    Elevation (deg)     Range (km)
                  ------------------------    -------------    ---------------    -----------
                  15 Aug 2024 05:10:03.625          338.975            -60.000    4714.442860
                  15 Aug 2024 05:11:03.000          336.702            -61.596    4560.385324
                  15 Aug 2024 05:12:03.000          333.942            -63.341    4416.095396
                  15 Aug 2024 05:13:03.000          330.579            -65.199    4284.592184
                  15 Aug 2024 05:14:03.000          326.428            -67.136    4167.255647
                  15 Aug 2024 05:15:03.000          321.247            -69.099    4065.462390
                  15 Aug 2024 05:16:03.000          314.729            -71.004    3980.533693
                  15 Aug 2024 05:17:03.000          306.541            -72.737    3913.673438
                  15 Aug 2024 05:18:03.000          296.446            -74.143    3865.900936
                  15 Aug 2024 05:19:03.000          284.556            -75.048    3837.985555
                  15 Aug 2024 05:20:03.000          271.600            -75.307    3830.392264
                  15 Aug 2024 05:21:03.000          258.816            -74.872    3843.246336
                  15 Aug 2024 05:22:03.000          247.353            -73.822    3876.323526
                  15 Aug 2024 05:23:03.000          237.768            -72.317    3929.067265
                  15 Aug 2024 05:24:03.000          230.053            -70.527    4000.629991
                  15 Aug 2024 05:25:03.000          223.926            -68.598    4089.931544
                  15 Aug 2024 05:26:03.000          219.055            -66.638    4195.725876
                  15 Aug 2024 05:27:03.000          215.147            -64.718    4316.667508
                  15 Aug 2024 05:28:03.000          211.977            -62.889    4451.371161
                  15 Aug 2024 05:29:03.000          209.373            -61.178    4598.460667
                  15 Aug 2024 05:29:47.385          207.735            -60.000    4714.455517

Interval Statistics
-------------------
Min Elevation     15 Aug 2024 05:19:55.269          273.288            -75.313    3830.222251
Max Elevation     15 Aug 2024 05:29:47.385          207.735            -60.000    4714.455517
Mean Elevation                                                         -68.103               
Min Range         15 Aug 2024 05:19:55.269          273.288            -75.313    3830.222251
Max Range         15 Aug 2024 05:29:47.385          207.735            -60.000    4714.455517
Mean Range                                                                        4173.933289

Statistics
----------
Min Elevation     14 Aug 2024 23:18:36.757          267.778            -89.767    3630.648751
Max Elevation     14 Aug 2024 20:24:33.964          247.049            -60.000    4714.455536
Mean Elevation                                                         -69.273               
Min Range         14 Aug 2024 23:18:36.757          267.778            -89.767    3630.648751
Max Range         14 Aug 2024 20:24:33.964          247.049            -60.000    4714.455536
Mean Range                                                                        4170.770765


Camera-To-Denver_CO - AER reported in the object's default AER frame
--------------------------------------------------------------------
                         Time (UTCG)          Azimuth (deg)    Elevation (deg)     Range (km)
                  ------------------------    -------------    ---------------    -----------
                  14 Aug 2024 23:00:53.149          325.672            -60.000    4711.970949
                  14 Aug 2024 23:01:53.000          322.876            -61.508    4565.990775
                  14 Aug 2024 23:02:53.000          319.541            -63.112    4431.635780
                  14 Aug 2024 23:03:53.000          315.541            -64.777    4310.593956
                  14 Aug 2024 23:04:53.000          310.721            -66.460    4204.184804
                  14 Aug 2024 23:05:53.000          304.905            -68.094    4113.693532
                  14 Aug 2024 23:06:53.000          297.924            -69.594    4040.317822
                  14 Aug 2024 23:07:53.000          289.680            -70.851    3985.108227
                  14 Aug 2024 23:08:53.000          280.248            -71.749    3948.907616
                  14 Aug 2024 23:09:53.000          269.970            -72.183    3932.296907
                  14 Aug 2024 23:10:53.000          259.454            -72.097    3935.554614
                  14 Aug 2024 23:11:53.000          249.390            -71.501    3958.636756
                  14 Aug 2024 23:12:53.000          240.312            -70.472    4001.180260
                  14 Aug 2024 23:13:53.000          232.469            -69.121    4062.529553
                  14 Aug 2024 23:14:53.000          225.867            -67.564    4141.781610
                  14 Aug 2024 23:15:53.000          220.377            -65.903    4237.842902
                  14 Aug 2024 23:16:53.000          215.822            -64.216    4349.490167
                  14 Aug 2024 23:17:53.000          212.031            -62.563    4475.428661
                  14 Aug 2024 23:18:53.000          208.856            -60.984    4614.342758
                  14 Aug 2024 23:19:32.391          207.047            -60.000    4711.971283

Interval Statistics
-------------------
Min Elevation     14 Aug 2024 23:10:13.180          266.425            -72.214    3931.170584
Max Elevation     14 Aug 2024 23:19:32.391          207.047            -60.000    4711.971286
Mean Elevation                                                         -66.638               
Min Range         14 Aug 2024 23:10:13.182          266.424            -72.214    3931.170584
Max Range         14 Aug 2024 23:19:32.391          207.047            -60.000    4711.971286
Mean Range                                                                        4236.672947

                         Time (UTCG)          Azimuth (deg)    Elevation (deg)     Range (km)
                  ------------------------    -------------    ---------------    -----------
                  15 Aug 2024 01:59:07.312           12.206            -60.000    4711.969740
                  15 Aug 2024 02:00:07.000           13.497            -61.696    4549.206563
                  15 Aug 2024 02:01:07.000           15.075            -63.580    4395.856808
                  15 Aug 2024 02:02:07.000           17.031            -65.642    4254.094950
                  15 Aug 2024 02:03:07.000           19.514            -67.873    4125.286744
                  15 Aug 2024 02:04:07.000           22.749            -70.250    4010.834241
                  15 Aug 2024 02:05:07.000           27.106            -72.732    3912.132646
                  15 Aug 2024 02:06:07.000           33.192            -75.245    3830.514367
                  15 Aug 2024 02:07:07.000           42.021            -77.660    3767.182634
                  15 Aug 2024 02:08:07.000           55.112            -79.744    3723.140389
                  15 Aug 2024 02:09:07.000           73.757            -81.115    3699.122348
                  15 Aug 2024 02:10:07.000           96.160            -81.340    3695.540218
                  15 Aug 2024 02:11:07.000          116.580            -80.328    3712.449957
                  15 Aug 2024 02:12:07.000          131.532            -78.442    3749.547084
                  15 Aug 2024 02:13:07.000          141.650            -76.112    3806.190871
                  15 Aug 2024 02:14:07.000          148.546            -73.616    3881.452984
                  15 Aug 2024 02:15:07.000          153.415            -71.116    3974.182356
                  15 Aug 2024 02:16:07.000          156.984            -68.699    4083.076347
                  15 Aug 2024 02:17:07.000          159.690            -66.417    4206.749487
                  15 Aug 2024 02:18:07.000          161.803            -64.297    4343.793178
                  15 Aug 2024 02:19:07.000          163.491            -62.353    4492.823208
                  15 Aug 2024 02:20:07.000          164.867            -60.588    4652.514101
                  15 Aug 2024 02:20:28.457          165.299            -60.000    4711.969682

Interval Statistics
-------------------
Min Elevation     15 Aug 2024 02:09:47.469           88.780            -81.410    3694.452024
Max Elevation     15 Aug 2024 01:59:07.312           12.206            -60.000    4711.969740
Mean Elevation                                                         -70.385               
Min Range         15 Aug 2024 02:09:47.469           88.780            -81.410    3694.452024
Max Range         15 Aug 2024 01:59:07.312           12.206            -60.000    4711.969740
Mean Range                                                                        4099.549170

                         Time (UTCG)          Azimuth (deg)    Elevation (deg)     Range (km)
                  ------------------------    -------------    ---------------    -----------
                  15 Aug 2024 05:00:53.321            9.051            -60.000    4711.969496
                  15 Aug 2024 05:01:53.000            9.735            -61.739    4545.433145
                  15 Aug 2024 05:02:53.000           10.580            -63.685    4388.005969
                  15 Aug 2024 05:03:53.000           11.639            -65.837    4241.930884
                  15 Aug 2024 05:04:53.000           13.003            -68.193    4108.611582
                  15 Aug 2024 05:05:53.000           14.818            -70.747    3989.503385
                  15 Aug 2024 05:06:53.000           17.343            -73.479    3886.071309
                  15 Aug 2024 05:07:53.000           21.072            -76.353    3799.733752
                  15 Aug 2024 05:08:53.000           27.051            -79.297    3731.793586
                  15 Aug 2024 05:09:53.000           37.795            -82.158    3683.361944
                  15 Aug 2024 05:10:53.000           59.594            -84.527    3655.282896
                  15 Aug 2024 05:11:53.000           98.613            -85.335    3648.069835
                  15 Aug 2024 05:12:53.000          132.855            -83.884    3661.864042
                  15 Aug 2024 05:13:53.000          150.180            -81.284    3696.423074
                  15 Aug 2024 05:14:53.000          159.000            -78.369    3751.141190
                  15 Aug 2024 05:15:53.000          164.107            -75.433    3825.097862
                  15 Aug 2024 05:16:53.000          167.389            -72.594    3917.125763
                  15 Aug 2024 05:17:53.000          169.663            -69.911    4025.887185
                  15 Aug 2024 05:18:53.000          171.325            -67.414    4149.948901
                  15 Aug 2024 05:19:53.000          172.593            -65.118    4287.847705
                  15 Aug 2024 05:20:53.000          173.590            -63.028    4438.142783
                  15 Aug 2024 05:21:53.000          174.395            -61.143    4599.453612
                  15 Aug 2024 05:22:32.826          174.849            -60.000    4711.969320

Interval Statistics
-------------------
Min Elevation     15 Aug 2024 05:11:43.593           91.905            -85.366    3647.811194
Max Elevation     15 Aug 2024 05:00:53.321            9.051            -60.000    4711.969496
Mean Elevation                                                         -71.719               
Min Range         15 Aug 2024 05:11:43.593           91.905            -85.366    3647.811194
Max Range         15 Aug 2024 05:00:53.321            9.051            -60.000    4711.969496
Mean Range                                                                        4063.246488

                         Time (UTCG)          Azimuth (deg)    Elevation (deg)     Range (km)
                  ------------------------    -------------    ---------------    -----------
                  15 Aug 2024 08:03:08.763          314.127            -60.000    4711.982942
                  15 Aug 2024 08:04:08.000          310.004            -61.083    4605.029866
                  15 Aug 2024 08:05:08.000          305.304            -62.138    4510.865387
                  15 Aug 2024 08:06:08.000          300.052            -63.107    4431.969413
                  15 Aug 2024 08:07:08.000          294.256            -63.941    4369.254731
                  15 Aug 2024 08:08:08.000          287.970            -64.588    4323.488927
                  15 Aug 2024 08:09:08.000          281.307            -65.006    4295.254366
                  15 Aug 2024 08:10:08.000          274.432            -65.163    4284.914841
                  15 Aug 2024 08:11:08.000          267.546            -65.046    4292.593553
                  15 Aug 2024 08:12:08.000          260.852            -64.666    4318.165063
                  15 Aug 2024 08:13:08.000          254.520            -64.051    4361.262746
                  15 Aug 2024 08:14:08.000          248.671            -63.245    4421.300350
                  15 Aug 2024 08:15:08.000          243.365            -62.297    4497.505009
                  15 Aug 2024 08:16:08.000          238.615            -61.256    4588.957255
                  15 Aug 2024 08:17:08.000          234.401            -60.168    4694.633731
                  15 Aug 2024 08:17:17.177          233.801            -60.000    4711.982949

Interval Statistics
-------------------
Min Elevation     15 Aug 2024 08:10:12.426          273.922            -65.164    4284.865794
Max Elevation     15 Aug 2024 08:17:17.177          233.801            -60.000    4711.982948
Mean Elevation                                                         -62.860               
Min Range         15 Aug 2024 08:10:12.429          273.922            -65.164    4284.865794
Max Range         15 Aug 2024 08:17:17.177          233.801            -60.000    4711.982948
Mean Range                                                                        4463.697570

Statistics
----------
Min Elevation     15 Aug 2024 05:11:43.593           91.905            -85.366    3647.811194
Max Elevation     15 Aug 2024 08:17:17.177          233.801            -60.000    4711.982948
Mean Elevation                                                         -68.377               
Min Range         15 Aug 2024 05:11:43.593           91.905            -85.366    3647.811194
Max Range         15 Aug 2024 08:17:17.177          233.801            -60.000    4711.982948
Mean Range                                                                        4193.864880


Camera-To-Houston_TX - AER reported in the object's default AER frame
---------------------------------------------------------------------
                         Time (UTCG)          Azimuth (deg)    Elevation (deg)     Range (km)
                  ------------------------    -------------    ---------------    -----------
                  14 Aug 2024 22:59:05.171            1.166            -60.000    4708.974063
                  14 Aug 2024 23:00:05.000            1.663            -61.767    4540.185465
                  14 Aug 2024 23:01:05.000            2.270            -63.744    4381.085914
                  14 Aug 2024 23:02:05.000            3.027            -65.934    4233.517724
                  14 Aug 2024 23:03:05.000            3.999            -68.338    4098.907385
                  14 Aug 2024 23:04:05.000            5.295            -70.953    3978.733097
                  14 Aug 2024 23:05:05.000            7.110            -73.764    3874.481274
                  14 Aug 2024 23:06:05.000            9.831            -76.744    3787.588144
                  14 Aug 2024 23:07:05.000           14.339            -79.842    3719.368357
                  14 Aug 2024 23:08:05.000           23.069            -82.948    3670.936291
                  14 Aug 2024 23:09:05.000           44.611            -85.726    3643.128670
                  14 Aug 2024 23:10:05.000           97.860            -86.742    3636.439926
                  14 Aug 2024 23:11:05.000          138.787            -84.784    3650.981114
                  14 Aug 2024 23:12:05.000          153.703            -81.811    3686.470172
                  14 Aug 2024 23:13:05.000          160.370            -78.692    3742.255385
                  14 Aug 2024 23:14:05.000          164.045            -75.634    3817.367549
                  14 Aug 2024 23:15:05.000          166.351            -72.717    3910.591492
                  14 Aug 2024 23:16:05.000          167.925            -69.981    4020.545368
                  14 Aug 2024 23:17:05.000          169.065            -67.448    4145.757429
                  14 Aug 2024 23:18:05.000          169.924            -65.128    4284.732483
                  14 Aug 2024 23:19:05.000          170.594            -63.022    4436.004354
                  14 Aug 2024 23:20:05.000          171.128            -61.126    4598.173309
                  14 Aug 2024 23:20:44.060          171.420            -60.000    4708.974019

Interval Statistics
-------------------
Min Elevation     14 Aug 2024 23:09:53.883           86.379            -86.807    3636.074830
Max Elevation     14 Aug 2024 22:59:05.171            1.166            -60.000    4708.974063
Mean Elevation                                                         -72.037               
Min Range         14 Aug 2024 23:09:53.884           86.380            -86.807    3636.074830
Max Range         14 Aug 2024 22:59:05.171            1.166            -60.000    4708.974063
Mean Range                                                                        4055.443434

                         Time (UTCG)          Azimuth (deg)    Elevation (deg)     Range (km)
                  ------------------------    -------------    ---------------    -----------
                  15 Aug 2024 02:05:26.629           48.035            -60.000    4708.981093
                  15 Aug 2024 02:06:26.000           51.909            -61.062    4604.174658
                  15 Aug 2024 02:07:26.000           56.308            -62.105    4510.969690
                  15 Aug 2024 02:08:26.000           61.224            -63.080    4431.449845
                  15 Aug 2024 02:09:26.000           66.661            -63.944    4366.449084
                  15 Aug 2024 02:10:26.000           72.587            -64.651    4316.692248
                  15 Aug 2024 02:11:26.000           78.923            -65.158    4282.761698
                  15 Aug 2024 02:12:26.000           85.538            -65.431    4265.067791
                  15 Aug 2024 02:13:26.000           92.259            -65.450    4263.826708
                  15 Aug 2024 02:14:26.000           98.900            -65.215    4279.048201
                  15 Aug 2024 02:15:26.000          105.284            -64.741    4310.534957
                  15 Aug 2024 02:16:26.000          111.273            -64.063    4357.893619
                  15 Aug 2024 02:17:26.000          116.781            -63.221    4420.556014
                  15 Aug 2024 02:18:26.000          121.769            -62.261    4497.808040
                  15 Aug 2024 02:19:26.000          126.237            -61.227    4588.822861
                  15 Aug 2024 02:20:26.000          130.214            -60.158    4692.695131
                  15 Aug 2024 02:20:34.815          130.759            -60.000    4708.981372

Interval Statistics
-------------------
Min Elevation     15 Aug 2024 02:13:00.514           89.403            -65.474    4262.338431
Max Elevation     15 Aug 2024 02:20:34.815          130.759            -60.000    4708.981376
Mean Elevation                                                         -63.045               
Min Range         15 Aug 2024 02:13:00.514           89.403            -65.474    4262.338431
Max Range         15 Aug 2024 02:20:34.815          130.759            -60.000    4708.981376
Mean Range                                                                        4447.453706

                         Time (UTCG)          Azimuth (deg)    Elevation (deg)     Range (km)
                  ------------------------    -------------    ---------------    -----------
                  15 Aug 2024 05:07:21.741           25.306            -60.000    4708.975173
                  15 Aug 2024 05:08:21.000           27.340            -61.579    4556.786202
                  15 Aug 2024 05:09:21.000           29.817            -63.315    4413.267948
                  15 Aug 2024 05:10:21.000           32.839            -65.175    4281.651402
                  15 Aug 2024 05:11:21.000           36.577            -67.131    4163.247304
                  15 Aug 2024 05:12:21.000           41.266            -69.140    4059.377412
                  15 Aug 2024 05:13:21.000           47.218            -71.133    3971.329738
                  15 Aug 2024 05:14:21.000           54.815            -73.006    3900.303772
                  15 Aug 2024 05:15:21.000           64.431            -74.615    3847.349056
                  15 Aug 2024 05:16:21.000           76.195            -75.779    3813.302979
                  15 Aug 2024 05:17:21.000           89.609            -76.315    3798.735312
                  15 Aug 2024 05:18:21.000          103.399            -76.122    3803.907548
                  15 Aug 2024 05:19:21.000          116.076            -75.236    3828.753682
                  15 Aug 2024 05:20:21.000          126.747            -73.812    3872.885626
                  15 Aug 2024 05:21:21.000          135.286            -72.039    3935.622443
                  15 Aug 2024 05:22:21.000          141.991            -70.082    4016.038235
                  15 Aug 2024 05:23:21.000          147.257            -68.063    4113.021490
                  15 Aug 2024 05:24:21.000          151.434            -66.067    4225.337502
                  15 Aug 2024 05:25:21.000          154.794            -64.150    4351.687325
                  15 Aug 2024 05:26:21.000          157.535            -62.345    4490.758255
                  15 Aug 2024 05:27:21.000          159.803            -60.673    4641.263562
                  15 Aug 2024 05:27:46.723          160.657            -60.000    4708.982998

Interval Statistics
-------------------
Min Elevation     15 Aug 2024 05:17:35.303           92.921            -76.337    3798.173354
Max Elevation     15 Aug 2024 05:27:46.723          160.657            -60.000    4708.983005
Mean Elevation                                                         -68.445               
Min Range         15 Aug 2024 05:17:35.305           92.922            -76.337    3798.173354
Max Range         15 Aug 2024 05:27:46.723          160.657            -60.000    4708.983005
Mean Range                                                                        4159.208408

                         Time (UTCG)          Azimuth (deg)    Elevation (deg)     Range (km)
                  ------------------------    -------------    ---------------    -----------
                  15 Aug 2024 08:09:34.108          314.636            -60.000    4708.987682
                  15 Aug 2024 08:10:34.000          310.463            -61.087    4601.804685
                  15 Aug 2024 08:11:34.000          305.760            -62.132    4508.618029
                  15 Aug 2024 08:12:34.000          300.512            -63.091    4430.627402
                  15 Aug 2024 08:13:34.000          294.729            -63.913    4368.724647
                  15 Aug 2024 08:14:34.000          288.466            -64.550    4323.656574
                  15 Aug 2024 08:15:34.000          281.837            -64.958    4295.986113
                  15 Aug 2024 08:16:34.000          275.004            -65.108    4286.060141
                  15 Aug 2024 08:17:34.000          268.166            -64.988    4293.988534
                  15 Aug 2024 08:18:34.000          261.519            -64.608    4319.636878
                  15 Aug 2024 08:19:34.000          255.232            -63.997    4362.634299
                  15 Aug 2024 08:20:34.000          249.422            -63.197    4422.394937
                  15 Aug 2024 08:21:34.000          244.148            -62.256    4498.150494
                  15 Aug 2024 08:22:34.000          239.423            -61.225    4588.989475
                  15 Aug 2024 08:23:34.000          235.228            -60.146    4693.899004
                  15 Aug 2024 08:23:42.050          234.703            -60.000    4708.987174

Interval Statistics
-------------------
Min Elevation     15 Aug 2024 08:16:37.346          274.621            -65.108    4286.032351
Max Elevation     15 Aug 2024 08:09:34.108          314.636            -60.000    4708.987682
Mean Elevation                                                         -62.828               
Min Range         15 Aug 2024 08:16:37.346          274.621            -65.108    4286.032351
Max Range         15 Aug 2024 08:09:34.108          314.636            -60.000    4708.987682
Mean Range                                                                        4463.321629

Statistics
----------
Min Elevation     14 Aug 2024 23:09:53.883           86.379            -86.807    3636.074830
Max Elevation     15 Aug 2024 08:09:34.108          314.636            -60.000    4708.987682
Mean Elevation                                                         -67.175               
Min Range         14 Aug 2024 23:09:53.884           86.380            -86.807    3636.074830
Max Range         15 Aug 2024 08:09:34.108          314.636            -60.000    4708.987682
Mean Range                                                                        4253.815936


Camera-To-Las_Vegas_NV - AER reported in the object's default AER frame
-----------------------------------------------------------------------
                         Time (UTCG)          Azimuth (deg)    Elevation (deg)     Range (km)
                  ------------------------    -------------    ---------------    -----------
                  14 Aug 2024 22:58:04.560          313.833            -60.000    4711.523891
                  14 Aug 2024 22:59:04.000          310.227            -61.268    4587.429734
                  14 Aug 2024 23:00:04.000          306.023            -62.560    4475.271479
                  14 Aug 2024 23:01:04.000          301.178            -63.823    4377.454320
                  14 Aug 2024 23:02:04.000          295.629            -65.003    4295.105413
                  14 Aug 2024 23:03:04.000          289.350            -66.036    4229.254850
                  14 Aug 2024 23:04:04.000          282.378            -66.856    4180.786625
                  14 Aug 2024 23:05:04.000          274.841            -67.399    4150.391011
                  14 Aug 2024 23:06:04.000          266.965            -67.618    4138.523649
                  14 Aug 2024 23:07:04.000          259.043            -67.491    4145.376934
                  14 Aug 2024 23:08:04.000          251.378            -67.031    4170.867618
                  14 Aug 2024 23:09:04.000          244.220            -66.278    4214.642778
                  14 Aug 2024 23:10:04.000          237.725            -65.292    4276.102897
                  14 Aug 2024 23:11:04.000          231.954            -64.141    4354.438997
                  14 Aug 2024 23:12:04.000          226.895            -62.890    4448.678307
                  14 Aug 2024 23:13:04.000          222.494            -61.595    4557.733348
                  14 Aug 2024 23:14:04.000          218.678            -60.303    4680.449061
                  14 Aug 2024 23:14:18.274          217.848            -60.000    4711.524446

Interval Statistics
-------------------
Min Elevation     14 Aug 2024 23:06:12.054          265.897            -67.621    4138.354777
Max Elevation     14 Aug 2024 23:14:18.274          217.848            -60.000    4711.524453
Mean Elevation                                                         -64.199               
Min Range         14 Aug 2024 23:06:12.053          265.897            -67.621    4138.354777
Max Range         14 Aug 2024 23:14:18.274          217.848            -60.000    4711.524453
Mean Range                                                                        4372.530853

                         Time (UTCG)          Azimuth (deg)    Elevation (deg)     Range (km)
                  ------------------------    -------------    ---------------    -----------
                  15 Aug 2024 01:54:45.940           13.816            -60.000    4711.511541
                  15 Aug 2024 01:55:45.000           15.317            -61.656    4552.283845
                  15 Aug 2024 01:56:45.000           17.164            -63.508    4400.877775
                  15 Aug 2024 01:57:45.000           19.444            -65.524    4261.193625
                  15 Aug 2024 01:58:45.000           22.317            -67.691    4134.583726
                  15 Aug 2024 01:59:45.000           26.025            -69.980    4022.429428
                  15 Aug 2024 02:00:45.000           30.942            -72.341    3926.097195
                  15 Aug 2024 02:01:45.000           37.643            -74.687    3846.882605
                  15 Aug 2024 02:02:45.000           46.979            -76.875    3785.944902
                  15 Aug 2024 02:03:45.000           59.967            -78.676    3744.238018
                  15 Aug 2024 02:04:45.000           76.976            -79.765    3722.445865
                  15 Aug 2024 02:05:45.000           96.120            -79.846    3720.931515
                  15 Aug 2024 02:06:45.000          113.630            -78.892    3739.708478
                  15 Aug 2024 02:07:45.000          127.218            -77.177    3778.439353
                  15 Aug 2024 02:08:45.000          137.023            -75.033    3836.462026
                  15 Aug 2024 02:09:45.000          144.045            -72.703    3912.838760
                  15 Aug 2024 02:10:45.000          149.174            -70.343    4006.420034
                  15 Aug 2024 02:11:45.000          153.023            -68.045    4115.913669
                  15 Aug 2024 02:12:45.000          155.990            -65.862    4239.951014
                  15 Aug 2024 02:13:45.000          158.333            -63.827    4377.144191
                  15 Aug 2024 02:14:45.000          160.221            -61.955    4526.131316
                  15 Aug 2024 02:15:45.000          161.769            -60.252    4685.609282
                  15 Aug 2024 02:15:54.420          161.987            -60.000    4711.517687

Interval Statistics
-------------------
Min Elevation     15 Aug 2024 02:05:19.465           87.947            -79.945    3719.088409
Max Elevation     15 Aug 2024 02:15:54.420          161.987            -60.000    4711.517696
Mean Elevation                                                         -69.767               
Min Range         15 Aug 2024 02:05:19.465           87.947            -79.945    3719.088409
Max Range         15 Aug 2024 02:15:54.420          161.987            -60.000    4711.517696
Mean Range                                                                        4119.980689

                         Time (UTCG)          Azimuth (deg)    Elevation (deg)     Range (km)
                  ------------------------    -------------    ---------------    -----------
                  15 Aug 2024 04:58:11.339           24.758            -60.000    4711.512224
                  15 Aug 2024 04:59:11.000           26.906            -61.570    4559.963044
                  15 Aug 2024 05:00:11.000           29.497            -63.280    4418.233720
                  15 Aug 2024 05:01:11.000           32.644            -65.103    4288.456867
                  15 Aug 2024 05:02:11.000           36.516            -67.012    4171.915317
                  15 Aug 2024 05:03:11.000           41.337            -68.961    4069.897015
                  15 Aug 2024 05:04:11.000           47.398            -70.878    3983.650727
                  15 Aug 2024 05:05:11.000           55.035            -72.662    3914.332516
                  15 Aug 2024 05:06:11.000           64.546            -74.173    3862.946390
                  15 Aug 2024 05:07:11.000           75.971            -75.243    3830.284970
                  15 Aug 2024 05:08:11.000           88.791            -75.712    3816.877288
                  15 Aug 2024 05:09:11.000          101.865            -75.497    3822.951359
                  15 Aug 2024 05:10:11.000          113.921            -74.637    3848.417507
                  15 Aug 2024 05:11:11.000          124.181            -73.270    3892.875230
                  15 Aug 2024 05:12:11.000          132.507            -71.569    3955.642524
                  15 Aug 2024 05:13:11.000          139.130            -69.685    4035.802633
                  15 Aug 2024 05:14:11.000          144.390            -67.735    4132.261337
                  15 Aug 2024 05:15:11.000          148.599            -65.800    4243.806914
                  15 Aug 2024 05:16:11.000          152.006            -63.937    4369.166633
                  15 Aug 2024 05:17:11.000          154.800            -62.178    4507.055110
                  15 Aug 2024 05:18:11.000          157.120            -60.546    4656.212429
                  15 Aug 2024 05:18:32.253          157.849            -60.000    4711.521180

Interval Statistics
-------------------
Min Elevation     15 Aug 2024 05:08:22.311           91.278            -75.724    3816.530543
Max Elevation     15 Aug 2024 05:18:32.253          157.849            -60.000    4711.521186
Mean Elevation                                                         -68.157               
Min Range         15 Aug 2024 05:08:22.311           91.278            -75.724    3816.530543
Max Range         15 Aug 2024 05:18:32.253          157.849            -60.000    4711.521186
Mean Range                                                                        4172.899224

                         Time (UTCG)          Azimuth (deg)    Elevation (deg)     Range (km)
                  ------------------------    -------------    ---------------    -----------
                  15 Aug 2024 07:58:46.817          341.314            -60.000    4711.511784
                  15 Aug 2024 07:59:46.000          339.210            -61.617    4555.803648
                  15 Aug 2024 08:00:46.000          336.639            -63.399    4409.143830
                  15 Aug 2024 08:01:46.000          333.492            -65.308    4275.101060
                  15 Aug 2024 08:02:46.000          329.583            -67.314    4155.069119
                  15 Aug 2024 08:03:46.000          324.654            -69.369    4050.446983
                  15 Aug 2024 08:04:46.000          318.366            -71.394    3962.587556
                  15 Aug 2024 08:05:46.000          310.308            -73.274    3892.735372
                  15 Aug 2024 08:06:46.000          300.106            -74.849    3841.957999
                  15 Aug 2024 08:07:46.000          287.718            -75.921    3811.077923
                  15 Aug 2024 08:08:46.000          273.848            -76.308    3800.614257
                  15 Aug 2024 08:09:46.000          259.967            -75.933    3810.743077
                  15 Aug 2024 08:10:46.000          247.554            -74.871    3841.283459
                  15 Aug 2024 08:11:46.000          237.326            -73.304    3891.711542
                  15 Aug 2024 08:12:46.000          229.249            -71.429    3961.200242
                  15 Aug 2024 08:13:46.000          222.952            -69.407    4048.677667
                  15 Aug 2024 08:14:46.000          218.023            -67.354    4152.895204
                  15 Aug 2024 08:15:46.000          214.121            -65.348    4272.496235
                  15 Aug 2024 08:16:46.000          210.988            -63.439    4406.078340
                  15 Aug 2024 08:17:46.000          208.436            -61.657    4552.244672
                  15 Aug 2024 08:18:46.000          206.330            -60.018    4709.642765
                  15 Aug 2024 08:18:46.694          206.307            -60.000    4711.524130

Interval Statistics
-------------------
Min Elevation     15 Aug 2024 08:08:46.487          273.733            -76.308    3800.613578
Max Elevation     15 Aug 2024 08:18:46.694          206.307            -60.000    4711.524130
Mean Elevation                                                         -68.251               
Min Range         15 Aug 2024 08:08:46.488          273.732            -76.308    3800.613578
Max Range         15 Aug 2024 08:18:46.694          206.307            -60.000    4711.524130
Mean Range                                                                        4173.843039

Statistics
----------
Min Elevation     15 Aug 2024 02:05:19.465           87.947            -79.945    3719.088409
Max Elevation     14 Aug 2024 23:14:18.274          217.848            -60.000    4711.524453
Mean Elevation                                                         -67.779               
Min Range         15 Aug 2024 02:05:19.465           87.947            -79.945    3719.088409
Max Range         14 Aug 2024 23:14:18.274          217.848            -60.000    4711.524453
Mean Range                                                                        4201.099306


Camera-To-Seattle_WA - AER reported in the object's default AER frame
---------------------------------------------------------------------
                         Time (UTCG)          Azimuth (deg)    Elevation (deg)     Range (km)
                  ------------------------    -------------    ---------------    -----------
                  15 Aug 2024 01:55:01.005          339.310            -60.000    4719.240508
                  15 Aug 2024 01:56:01.000          337.560            -61.681    4557.264028
                  15 Aug 2024 01:57:01.000          335.428            -63.526    4406.191497
                  15 Aug 2024 01:58:01.000          332.789            -65.526    4267.395921
                  15 Aug 2024 01:59:01.000          329.461            -67.659    4142.293555
                  15 Aug 2024 02:00:01.000          325.178            -69.887    4032.322388
                  15 Aug 2024 02:01:01.000          319.548            -72.145    3938.892774
                  15 Aug 2024 02:02:01.000          312.014            -74.328    3863.325585
                  15 Aug 2024 02:03:01.000          301.875            -76.270    3806.781516
                  15 Aug 2024 02:04:01.000          288.571            -77.736    3770.188431
                  15 Aug 2024 02:05:01.000          272.489            -78.447    3754.175859
                  15 Aug 2024 02:06:01.000          255.669            -78.227    3759.026746
                  15 Aug 2024 02:07:01.000          240.724            -77.132    3784.654759
                  15 Aug 2024 02:08:01.000          228.920            -75.411    3830.611274
                  15 Aug 2024 02:09:01.000          220.076            -73.332    3896.120839
                  15 Aug 2024 02:10:01.000          213.500            -71.098    3980.138611
                  15 Aug 2024 02:11:01.000          208.546            -68.844    4081.420516
                  15 Aug 2024 02:12:01.000          204.735            -66.654    4198.595960
                  15 Aug 2024 02:13:01.000          201.742            -64.579    4330.235119
                  15 Aug 2024 02:14:01.000          199.343            -62.649    4474.905263
                  15 Aug 2024 02:15:01.000          197.385            -60.880    4631.213843
                  15 Aug 2024 02:15:33.134          196.480            -60.000    4719.249984

Interval Statistics
-------------------
Min Elevation     15 Aug 2024 02:05:17.067          267.940            -78.482    3753.426336
Max Elevation     15 Aug 2024 02:15:33.134          196.480            -60.000    4719.249990
Mean Elevation                                                         -69.364               
Min Range         15 Aug 2024 02:05:17.066          267.940            -78.482    3753.426336
Max Range         15 Aug 2024 02:15:33.134          196.480            -60.000    4719.249990
Mean Range                                                                        4133.829317

                         Time (UTCG)          Azimuth (deg)    Elevation (deg)     Range (km)
                  ------------------------    -------------    ---------------    -----------
                  15 Aug 2024 04:53:49.102          355.718            -60.000    4719.240023
                  15 Aug 2024 04:54:49.000          355.264            -61.763    4550.033458
                  15 Aug 2024 04:55:49.000          354.704            -63.734    4390.659241
                  15 Aug 2024 04:56:49.000          353.998            -65.918    4242.761487
                  15 Aug 2024 04:57:49.000          353.084            -68.317    4107.770931
                  15 Aug 2024 04:58:49.000          351.857            -70.928    3987.172580
                  15 Aug 2024 04:59:49.000          350.130            -73.737    3882.462654
                  15 Aug 2024 05:00:49.000          347.530            -76.717    3795.090491
                  15 Aug 2024 05:01:49.000          343.209            -79.820    3726.387185
                  15 Aug 2024 05:02:49.000          334.814            -82.943    3677.486527
                  15 Aug 2024 05:03:49.000          313.853            -85.765    3649.246802
                  15 Aug 2024 05:04:49.000          259.718            -86.857    3642.184904
                  15 Aug 2024 05:05:49.000          217.604            -84.891    3656.433741
                  15 Aug 2024 05:06:49.000          202.718            -81.897    3691.730978
                  15 Aug 2024 05:07:49.000          196.162            -78.763    3747.441256
                  15 Aug 2024 05:08:49.000          192.574            -75.693    3822.607579
                  15 Aug 2024 05:09:49.000          190.332            -72.765    3916.022624
                  15 Aug 2024 05:10:49.000          188.805            -70.021    4026.308312
                  15 Aug 2024 05:11:49.000          187.702            -67.480    4151.993191
                  15 Aug 2024 05:12:49.000          186.871            -65.153    4291.579681
                  15 Aug 2024 05:13:49.000          186.224            -63.041    4443.597317
                  15 Aug 2024 05:14:49.000          185.708            -61.139    4606.640877
                  15 Aug 2024 05:15:28.460          185.422            -60.000    4719.239899

Interval Statistics
-------------------
Min Elevation     15 Aug 2024 05:04:38.869          270.557            -86.913    3641.880596
Max Elevation     15 Aug 2024 04:53:49.102          355.718            -60.000    4719.240023
Mean Elevation                                                         -72.058               
Min Range         15 Aug 2024 05:04:38.869          270.557            -86.913    3641.880596
Max Range         15 Aug 2024 04:53:49.102          355.718            -60.000    4719.240023
Mean Range                                                                        4062.786597

                         Time (UTCG)          Azimuth (deg)    Elevation (deg)     Range (km)
                  ------------------------    -------------    ---------------    -----------
                  15 Aug 2024 07:54:24.298          325.339            -60.000    4719.249776
                  15 Aug 2024 07:55:24.000          321.989            -61.375    4584.883511
                  15 Aug 2024 07:56:24.000          318.058            -62.800    4462.698170
                  15 Aug 2024 07:57:24.000          313.459            -64.231    4354.633725
                  15 Aug 2024 07:58:24.000          308.090            -65.612    4261.899018
                  15 Aug 2024 07:59:24.000          301.868            -66.878    4185.626549
                  15 Aug 2024 08:00:24.000          294.766            -67.950    4126.820324
                  15 Aug 2024 08:01:24.000          286.857            -68.744    4086.302137
                  15 Aug 2024 08:02:24.000          278.352            -69.190    4064.662408
                  15 Aug 2024 08:03:24.000          269.595            -69.241    4062.221672
                  15 Aug 2024 08:04:24.000          260.994            -68.893    4079.008603
                  15 Aug 2024 08:05:24.000          252.917            -68.181    4114.757762
                  15 Aug 2024 08:06:24.000          245.611            -67.173    4168.927665
                  15 Aug 2024 08:07:24.000          239.180            -65.951    4240.736139
                  15 Aug 2024 08:08:24.000          233.618            -64.594    4329.207851
                  15 Aug 2024 08:09:24.000          228.852            -63.173    4433.227582
                  15 Aug 2024 08:10:24.000          224.783            -61.745    4551.593259
                  15 Aug 2024 08:11:24.000          221.306            -60.352    4683.064029
                  15 Aug 2024 08:11:39.602          220.487            -60.000    4719.244056

Interval Statistics
-------------------
Min Elevation     15 Aug 2024 08:03:01.601          272.868            -69.270    4060.878729
Max Elevation     15 Aug 2024 07:54:24.298          325.339            -60.000    4719.249776
Mean Elevation                                                         -65.057               
Min Range         15 Aug 2024 08:03:01.600          272.868            -69.270    4060.878729
Max Range         15 Aug 2024 07:54:24.298          325.339            -60.000    4719.249776
Mean Range                                                                        4327.829697

Statistics
----------
Min Elevation     15 Aug 2024 05:04:38.869          270.557            -86.913    3641.880596
Max Elevation     15 Aug 2024 02:15:33.134          196.480            -60.000    4719.249990
Mean Elevation                                                         -69.054               
Min Range         15 Aug 2024 05:04:38.869          270.557            -86.913    3641.880596
Max Range         15 Aug 2024 02:15:33.134          196.480            -60.000    4719.249990
Mean Range                                                                        4165.892202

Global Statistics
-----------------
Min Elevation     14 Aug 2024 23:18:36.757          267.778            -89.767    3630.648751
Max Elevation     15 Aug 2024 08:17:17.177          233.801            -60.000    4711.982948
Mean Elevation                                                         -68.291               
Min Range         14 Aug 2024 23:18:36.757          267.778            -89.767    3630.648751
Max Range         15 Aug 2024 02:15:33.134          196.480            -60.000    4719.249990
Mean Range                                                                        4198.399177
